[
    {
        "model": "carte.commune",
        "pk": 1,
        "fields": {
            "codePostal": 81470,
            "libCommune": "Aguts",
            "population2535": null,
            "population3545": null,
            "population4555": null,
            "demandeSoin": 47.0,
            "departement": 1,
            "latitude": 43.5319239166,
            "longitude": 1.92450141388
        }
    },
    {
        "model": "carte.commune",
        "pk": 2,
        "fields": {
            "codePostal": 81200,
            "libCommune": "Aiguefonde",
            "population2535": null,
            "population3545": null,
            "population4555": null,
            "demandeSoin": 47.0,
            "departement": 1,
            "latitude": 43.4928550174,
            "longitude": 2.32315581418
        }
    },
    {
        "model": "carte.commune",
        "pk": 3,
        "fields": {
            "codePostal": 81250,
            "libCommune": "Alban",
            "population2535": null,
            "population3545": null,
            "population4555": null,
            "demandeSoin": 72.0,
            "departement": 1,
            "latitude": 43.8843961225,
            "longitude": 2.45700986389
        }
    },
    {
        "model": "carte.commune",
        "pk": 4,
        "fields": {
            "codePostal": 81000,
            "libCommune": "Albi",
            "population2535": null,
            "population3545": null,
            "population4555": null,
            "demandeSoin": 47.0,
            "departement": 1,
            "latitude": 43.9258213622,
            "longitude": 2.14686328555
        }
    },
    {
        "model": "carte.commune",
        "pk": 5,
        "fields": {
            "codePostal": 81240,
            "libCommune": "Albine",
            "population2535": null,
            "population3545": null,
            "population4555": null,
            "demandeSoin": 72.0,
            "departement": 1,
            "latitude": 43.4439474577,
            "longitude": 2.52811969517
        }
    },
    {
        "model": "carte.commune",
        "pk": 6,
        "fields": {
            "codePostal": 81470,
            "libCommune": "Algans",
            "population2535": null,
            "population3545": null,
            "population4555": null,
            "demandeSoin": 47.0,
            "departement": 1,
            "latitude": 43.6001082724,
            "longitude": 1.89151438957
        }
    },
    {
        "model": "carte.commune",
        "pk": 7,
        "fields": {
            "codePostal": 81140,
            "libCommune": "Alos",
            "population2535": null,
            "population3545": null,
            "population4555": null,
            "demandeSoin": 72.0,
            "departement": 1,
            "latitude": 44.0205135175,
            "longitude": 1.87448422002
        }
    },
    {
        "model": "carte.commune",
        "pk": 8,
        "fields": {
            "codePostal": 81190,
            "libCommune": "Almayrac",
            "population2535": null,
            "population3545": null,
            "population4555": null,
            "demandeSoin": 60.0,
            "departement": 1,
            "latitude": 44.0989296815,
            "longitude": 2.155985909
        }
    },
    {
        "model": "carte.commune",
        "pk": 9,
        "fields": {
            "codePostal": 81170,
            "libCommune": "Amarens",
            "population2535": null,
            "population3545": null,
            "population4555": null,
            "demandeSoin": 60.0,
            "departement": 1,
            "latitude": 44.0438938289,
            "longitude": 1.92108502728
        }
    },
    {
        "model": "carte.commune",
        "pk": 10,
        "fields": {
            "codePostal": 81430,
            "libCommune": "Ambialet",
            "population2535": null,
            "population3545": null,
            "population4555": null,
            "demandeSoin": 47.0,
            "departement": 1,
            "latitude": 43.9263758841,
            "longitude": 2.37579999159
        }
    },
    {
        "model": "carte.commune",
        "pk": 11,
        "fields": {
            "codePostal": 81500,
            "libCommune": "Ambres",
            "population2535": null,
            "population3545": null,
            "population4555": null,
            "demandeSoin": 47.0,
            "departement": 1,
            "latitude": 43.7287344791,
            "longitude": 1.83182396743
        }
    },
    {
        "model": "carte.commune",
        "pk": 12,
        "fields": {
            "codePostal": 81140,
            "libCommune": "Andillac",
            "population2535": null,
            "population3545": null,
            "population4555": null,
            "demandeSoin": 47.0,
            "departement": 1,
            "latitude": 44.0051181728,
            "longitude": 1.89353888985
        }
    },
    {
        "model": "carte.commune",
        "pk": 13,
        "fields": {
            "codePostal": 81350,
            "libCommune": "Andouque",
            "population2535": null,
            "population3545": null,
            "population4555": null,
            "demandeSoin": 47.0,
            "departement": 1,
            "latitude": 44.0085365227,
            "longitude": 2.30256637897
        }
    },
    {
        "model": "carte.commune",
        "pk": 14,
        "fields": {
            "codePostal": 81260,
            "libCommune": "Anglès",
            "population2535": null,
            "population3545": null,
            "population4555": null,
            "demandeSoin": 72.0,
            "departement": 1,
            "latitude": 43.550474503,
            "longitude": 2.58241545036
        }
    },
    {
        "model": "carte.commune",
        "pk": 15,
        "fields": {
            "codePostal": 81700,
            "libCommune": "Appelle",
            "population2535": null,
            "population3545": null,
            "population4555": null,
            "demandeSoin": 60.0,
            "departement": 1,
            "latitude": 43.5806834944,
            "longitude": 1.95329824844
        }
    },
    {
        "model": "carte.commune",
        "pk": 16,
        "fields": {
            "codePostal": 81110,
            "libCommune": "Arfons",
            "population2535": null,
            "population3545": null,
            "population4555": null,
            "demandeSoin": 72.0,
            "departement": 1,
            "latitude": 43.4246280081,
            "longitude": 2.18966306697
        }
    },
    {
        "model": "carte.commune",
        "pk": 17,
        "fields": {
            "codePostal": 81360,
            "libCommune": "Arifat",
            "population2535": null,
            "population3545": null,
            "population4555": null,
            "demandeSoin": 60.0,
            "departement": 1,
            "latitude": 43.7758760162,
            "longitude": 2.3529229423
        }
    },
    {
        "model": "carte.commune",
        "pk": 18,
        "fields": {
            "codePostal": 81160,
            "libCommune": "Arthès",
            "population2535": null,
            "population3545": null,
            "population4555": null,
            "demandeSoin": 47.0,
            "departement": 1,
            "latitude": 43.9638815505,
            "longitude": 2.22587013595
        }
    },
    {
        "model": "carte.commune",
        "pk": 19,
        "fields": {
            "codePostal": 81340,
            "libCommune": "Assac",
            "population2535": null,
            "population3545": null,
            "population4555": null,
            "demandeSoin": 47.0,
            "departement": 1,
            "latitude": 43.9784300195,
            "longitude": 2.43430907568
        }
    },
    {
        "model": "carte.commune",
        "pk": 20,
        "fields": {
            "codePostal": 81600,
            "libCommune": "Aussac",
            "population2535": null,
            "population3545": null,
            "population4555": null,
            "demandeSoin": 47.0,
            "departement": 1,
            "latitude": 43.8628657084,
            "longitude": 2.03857774636
        }
    },
    {
        "model": "carte.commune",
        "pk": 21,
        "fields": {
            "codePostal": 81200,
            "libCommune": "Aussillon",
            "population2535": null,
            "population3545": null,
            "population4555": null,
            "demandeSoin": 72.0,
            "departement": 1,
            "latitude": 43.4946823944,
            "longitude": 2.35580492552
        }
    },
    {
        "model": "carte.commune",
        "pk": 22,
        "fields": {
            "codePostal": 81500,
            "libCommune": "Bannières",
            "population2535": null,
            "population3545": null,
            "population4555": null,
            "demandeSoin": 47.0,
            "departement": 1,
            "latitude": 43.6190407005,
            "longitude": 1.75804967667
        }
    },
    {
        "model": "carte.commune",
        "pk": 23,
        "fields": {
            "codePostal": 81320,
            "libCommune": "Barre",
            "population2535": null,
            "population3545": null,
            "population4555": null,
            "demandeSoin": 72.0,
            "departement": 1,
            "latitude": 43.7432621915,
            "longitude": 2.81599308412
        }
    },
    {
        "model": "carte.commune",
        "pk": 24,
        "fields": {
            "codePostal": 81630,
            "libCommune": "Beauvais-sur-Tescou",
            "population2535": null,
            "population3545": null,
            "population4555": null,
            "demandeSoin": 47.0,
            "departement": 1,
            "latitude": 43.8981519823,
            "longitude": 1.57160347509
        }
    },
    {
        "model": "carte.commune",
        "pk": 25,
        "fields": {
            "codePostal": 81500,
            "libCommune": "Belcastel",
            "population2535": null,
            "population3545": null,
            "population4555": null,
            "demandeSoin": 47.0,
            "departement": 1,
            "latitude": 43.6490033004,
            "longitude": 1.7499203412
        }
    },
    {
        "model": "carte.commune",
        "pk": 26,
        "fields": {
            "codePostal": 81430,
            "libCommune": "Bellegarde-Marsal",
            "population2535": null,
            "population3545": null,
            "population4555": null,
            "demandeSoin": 47.0,
            "departement": 1,
            "latitude": 43.9045721736,
            "longitude": 2.27727320222
        }
    },
    {
        "model": "carte.commune",
        "pk": 27,
        "fields": {
            "codePostal": 81540,
            "libCommune": "Belleserre",
            "population2535": null,
            "population3545": null,
            "population4555": null,
            "demandeSoin": 47.0,
            "departement": 1,
            "latitude": 43.4898977584,
            "longitude": 2.05991842969
        }
    },
    {
        "model": "carte.commune",
        "pk": 28,
        "fields": {
            "codePostal": 81260,
            "libCommune": "Berlats",
            "population2535": null,
            "population3545": null,
            "population4555": null,
            "demandeSoin": 60.0,
            "departement": 1,
            "latitude": 43.6990584222,
            "longitude": 2.56292415401
        }
    },
    {
        "model": "carte.commune",
        "pk": 29,
        "fields": {
            "codePostal": 81150,
            "libCommune": "Bernac",
            "population2535": null,
            "population3545": null,
            "population4555": null,
            "demandeSoin": 47.0,
            "departement": 1,
            "latitude": 43.9532150821,
            "longitude": 2.02995456926
        }
    },
    {
        "model": "carte.commune",
        "pk": 30,
        "fields": {
            "codePostal": 81700,
            "libCommune": "Bertre",
            "population2535": null,
            "population3545": null,
            "population4555": null,
            "demandeSoin": 47.0,
            "departement": 1,
            "latitude": 43.6053640705,
            "longitude": 1.94349435829
        }
    },
    {
        "model": "carte.commune",
        "pk": 31,
        "fields": {
            "codePostal": 81031,
            "libCommune": "Le Bez",
            "population2535": null,
            "population3545": null,
            "population4555": null,
            "demandeSoin": 47.0,
            "departement": 1
        }
    },
    {
        "model": "carte.commune",
        "pk": 32,
        "fields": {
            "codePostal": 81700,
            "libCommune": "Blan",
            "population2535": null,
            "population3545": null,
            "population4555": null,
            "demandeSoin": 47.0,
            "departement": 1,
            "latitude": 43.5195201544,
            "longitude": 2.02369927552
        }
    },
    {
        "model": "carte.commune",
        "pk": 33,
        "fields": {
            "codePostal": 81400,
            "libCommune": "Blaye-les-Mines",
            "population2535": null,
            "population3545": null,
            "population4555": null,
            "demandeSoin": 47.0,
            "departement": 1,
            "latitude": 44.033065795,
            "longitude": 2.14278920127
        }
    },
    {
        "model": "carte.commune",
        "pk": 34,
        "fields": {
            "codePostal": 81490,
            "libCommune": "Boissezon",
            "population2535": null,
            "population3545": null,
            "population4555": null,
            "demandeSoin": 47.0,
            "departement": 1,
            "latitude": 43.572194321,
            "longitude": 2.40561286973
        }
    },
    {
        "model": "carte.commune",
        "pk": 35,
        "fields": {
            "codePostal": 81170,
            "libCommune": "Bournazel",
            "population2535": null,
            "population3545": null,
            "population4555": null,
            "demandeSoin": 72.0,
            "departement": 1,
            "latitude": 44.1008171987,
            "longitude": 1.96845675967
        }
    },
    {
        "model": "carte.commune",
        "pk": 36,
        "fields": {
            "codePostal": 81660,
            "libCommune": "Bout-du-Pont-de-Larn",
            "population2535": null,
            "population3545": null,
            "population4555": null,
            "demandeSoin": 47.0,
            "departement": 1,
            "latitude": 43.5015583238,
            "longitude": 2.42981143239
        }
    },
    {
        "model": "carte.commune",
        "pk": 37,
        "fields": {
            "codePostal": 81260,
            "libCommune": "Brassac",
            "population2535": null,
            "population3545": null,
            "population4555": null,
            "demandeSoin": 72.0,
            "departement": 1,
            "latitude": 43.6117373541,
            "longitude": 2.51133931505
        }
    },
    {
        "model": "carte.commune",
        "pk": 38,
        "fields": {
            "codePostal": 81600,
            "libCommune": "Brens",
            "population2535": null,
            "population3545": null,
            "population4555": null,
            "demandeSoin": 47.0,
            "departement": 1,
            "latitude": 43.8878107316,
            "longitude": 1.92967120122
        }
    },
    {
        "model": "carte.commune",
        "pk": 39,
        "fields": {
            "codePostal": 81390,
            "libCommune": "Briatexte",
            "population2535": null,
            "population3545": null,
            "population4555": null,
            "demandeSoin": 47.0,
            "departement": 1,
            "latitude": 43.747193404,
            "longitude": 1.92377964856
        }
    },
    {
        "model": "carte.commune",
        "pk": 40,
        "fields": {
            "codePostal": 81440,
            "libCommune": "Brousse",
            "population2535": null,
            "population3545": null,
            "population4555": null,
            "demandeSoin": 47.0,
            "departement": 1,
            "latitude": 43.720141927,
            "longitude": 2.06153730693
        }
    },
    {
        "model": "carte.commune",
        "pk": 41,
        "fields": {
            "codePostal": 81600,
            "libCommune": "Broze",
            "population2535": null,
            "population3545": null,
            "population4555": null,
            "demandeSoin": 72.0,
            "departement": 1,
            "latitude": 43.9545871483,
            "longitude": 1.89131601329
        }
    },
    {
        "model": "carte.commune",
        "pk": 42,
        "fields": {
            "codePostal": 81100,
            "libCommune": "Burlats",
            "population2535": null,
            "population3545": null,
            "population4555": null,
            "demandeSoin": 47.0,
            "departement": 1,
            "latitude": 43.634494226,
            "longitude": 2.32985791816
        }
    },
    {
        "model": "carte.commune",
        "pk": 43,
        "fields": {
            "codePostal": 81300,
            "libCommune": "Busque",
            "population2535": null,
            "population3545": null,
            "population4555": null,
            "demandeSoin": 47.0,
            "departement": 1,
            "latitude": 43.7853547999,
            "longitude": 1.94837679226
        }
    },
    {
        "model": "carte.commune",
        "pk": 44,
        "fields": {
            "codePostal": 81500,
            "libCommune": "Cabanès",
            "population2535": null,
            "population3545": null,
            "population4555": null,
            "demandeSoin": 47.0,
            "departement": 1,
            "latitude": 43.7158848933,
            "longitude": 1.94997109086
        }
    },
    {
        "model": "carte.commune",
        "pk": 45,
        "fields": {
            "codePostal": 81045,
            "libCommune": "Les Cabannes",
            "population2535": null,
            "population3545": null,
            "population4555": null,
            "demandeSoin": 72.0,
            "departement": 1
        }
    },
    {
        "model": "carte.commune",
        "pk": 46,
        "fields": {
            "codePostal": 81600,
            "libCommune": "Cadalen",
            "population2535": null,
            "population3545": null,
            "population4555": null,
            "demandeSoin": 47.0,
            "departement": 1,
            "latitude": 43.8430473493,
            "longitude": 1.9835948491
        }
    },
    {
        "model": "carte.commune",
        "pk": 47,
        "fields": {
            "codePostal": 81340,
            "libCommune": "Cadix",
            "population2535": null,
            "population3545": null,
            "population4555": null,
            "demandeSoin": 47.0,
            "departement": 1,
            "latitude": 43.9764011774,
            "longitude": 2.4705615004
        }
    },
    {
        "model": "carte.commune",
        "pk": 48,
        "fields": {
            "codePostal": 81130,
            "libCommune": "Cagnac-les-Mines",
            "population2535": null,
            "population3545": null,
            "population4555": null,
            "demandeSoin": 47.0,
            "departement": 1,
            "latitude": 43.9810206314,
            "longitude": 2.11921214
        }
    },
    {
        "model": "carte.commune",
        "pk": 49,
        "fields": {
            "codePostal": 81540,
            "libCommune": "Cahuzac",
            "population2535": null,
            "population3545": null,
            "population4555": null,
            "demandeSoin": 85.0,
            "departement": 1,
            "latitude": 43.4764567582,
            "longitude": 2.08126437181
        }
    },
    {
        "model": "carte.commune",
        "pk": 50,
        "fields": {
            "codePostal": 81470,
            "libCommune": "Cambon-lès-Lavaur",
            "population2535": null,
            "population3545": null,
            "population4555": null,
            "demandeSoin": 47.0,
            "departement": 1,
            "latitude": 43.5919658336,
            "longitude": 1.84810953199
        }
    },
    {
        "model": "carte.commune",
        "pk": 51,
        "fields": {
            "codePostal": 81140,
            "libCommune": "Cahuzac-sur-Vère",
            "population2535": null,
            "population3545": null,
            "population4555": null,
            "demandeSoin": 47.0,
            "departement": 1,
            "latitude": 43.9863939929,
            "longitude": 1.91547444957
        }
    },
    {
        "model": "carte.commune",
        "pk": 52,
        "fields": {
            "codePostal": 81990,
            "libCommune": "Cambon",
            "population2535": null,
            "population3545": null,
            "population4555": null,
            "demandeSoin": 47.0,
            "departement": 1,
            "latitude": 43.9118287405,
            "longitude": 2.2237324057
        }
    },
    {
        "model": "carte.commune",
        "pk": 53,
        "fields": {
            "codePostal": 81260,
            "libCommune": "Cambounès",
            "population2535": null,
            "population3545": null,
            "population4555": null,
            "demandeSoin": 72.0,
            "departement": 1,
            "latitude": 43.5907432712,
            "longitude": 2.43974230887
        }
    },
    {
        "model": "carte.commune",
        "pk": 54,
        "fields": {
            "codePostal": 81580,
            "libCommune": "Cambounet-sur-le-Sor",
            "population2535": null,
            "population3545": null,
            "population4555": null,
            "demandeSoin": 47.0,
            "departement": 1,
            "latitude": 43.5776046558,
            "longitude": 2.12002411847
        }
    },
    {
        "model": "carte.commune",
        "pk": 55,
        "fields": {
            "codePostal": 81055,
            "libCommune": "Les Cammazes",
            "population2535": null,
            "population3545": null,
            "population4555": null,
            "demandeSoin": 47.0,
            "departement": 1
        }
    },
    {
        "model": "carte.commune",
        "pk": 56,
        "fields": {
            "codePostal": 81140,
            "libCommune": "Campagnac",
            "population2535": null,
            "population3545": null,
            "population4555": null,
            "demandeSoin": 47.0,
            "departement": 1,
            "latitude": 44.0329274572,
            "longitude": 1.83921027036
        }
    },
    {
        "model": "carte.commune",
        "pk": 57,
        "fields": {
            "codePostal": 81570,
            "libCommune": "Carbes",
            "population2535": null,
            "population3545": null,
            "population4555": null,
            "demandeSoin": 32.0,
            "departement": 1,
            "latitude": 43.6353726667,
            "longitude": 2.15170395201
        }
    },
    {
        "model": "carte.commune",
        "pk": 58,
        "fields": {
            "codePostal": 81990,
            "libCommune": "Carlus",
            "population2535": null,
            "population3545": null,
            "population4555": null,
            "demandeSoin": 47.0,
            "departement": 1,
            "latitude": 43.8879968816,
            "longitude": 2.10436309581
        }
    },
    {
        "model": "carte.commune",
        "pk": 59,
        "fields": {
            "codePostal": 81400,
            "libCommune": "Carmaux",
            "population2535": null,
            "population3545": null,
            "population4555": null,
            "demandeSoin": 47.0,
            "departement": 1,
            "latitude": 44.0566667256,
            "longitude": 2.16641418483
        }
    },
    {
        "model": "carte.commune",
        "pk": 60,
        "fields": {
            "codePostal": 81150,
            "libCommune": "Castanet",
            "population2535": null,
            "population3545": null,
            "population4555": null,
            "demandeSoin": 72.0,
            "departement": 1,
            "latitude": 43.9734777518,
            "longitude": 2.03636220381
        }
    },
    {
        "model": "carte.commune",
        "pk": 61,
        "fields": {
            "codePostal": 81260,
            "libCommune": "Fontrieu",
            "population2535": null,
            "population3545": null,
            "population4555": null,
            "demandeSoin": 47.0,
            "departement": 1,
            "latitude": 43.6578748652,
            "longitude": 2.52758390349
        }
    },
    {
        "model": "carte.commune",
        "pk": 62,
        "fields": {
            "codePostal": 81150,
            "libCommune": "Castelnau-de-Lévis",
            "population2535": null,
            "population3545": null,
            "population4555": null,
            "demandeSoin": 47.0,
            "departement": 1,
            "latitude": 43.9437169399,
            "longitude": 2.07110041598
        }
    },
    {
        "model": "carte.commune",
        "pk": 63,
        "fields": {
            "codePostal": 81140,
            "libCommune": "Castelnau-de-Montmiral",
            "population2535": null,
            "population3545": null,
            "population4555": null,
            "demandeSoin": 47.0,
            "departement": 1,
            "latitude": 43.9867805665,
            "longitude": 1.78310029174
        }
    },
    {
        "model": "carte.commune",
        "pk": 64,
        "fields": {
            "codePostal": 81100,
            "libCommune": "Castres",
            "population2535": null,
            "population3545": null,
            "population4555": null,
            "demandeSoin": 47.0,
            "departement": 1,
            "latitude": 43.6156511237,
            "longitude": 2.23787231587
        }
    },
    {
        "model": "carte.commune",
        "pk": 65,
        "fields": {
            "codePostal": 81200,
            "libCommune": "Caucalières",
            "population2535": null,
            "population3545": null,
            "population4555": null,
            "demandeSoin": 60.0,
            "departement": 1,
            "latitude": 43.5399609489,
            "longitude": 2.31043142734
        }
    },
    {
        "model": "carte.commune",
        "pk": 66,
        "fields": {
            "codePostal": 81150,
            "libCommune": "Cestayrols",
            "population2535": null,
            "population3545": null,
            "population4555": null,
            "demandeSoin": 47.0,
            "departement": 1,
            "latitude": 43.9825675453,
            "longitude": 1.98780845646
        }
    },
    {
        "model": "carte.commune",
        "pk": 67,
        "fields": {
            "codePostal": 81640,
            "libCommune": "Combefa",
            "population2535": null,
            "population3545": null,
            "population4555": null,
            "demandeSoin": 47.0,
            "departement": 1,
            "latitude": 44.0498006457,
            "longitude": 2.09498362646
        }
    },
    {
        "model": "carte.commune",
        "pk": 68,
        "fields": {
            "codePostal": 81170,
            "libCommune": "Cordes-sur-Ciel",
            "population2535": null,
            "population3545": null,
            "population4555": null,
            "demandeSoin": 72.0,
            "departement": 1,
            "latitude": 44.0681683828,
            "longitude": 1.95360871103
        }
    },
    {
        "model": "carte.commune",
        "pk": 69,
        "fields": {
            "codePostal": 81800,
            "libCommune": "Coufouleux",
            "population2535": null,
            "population3545": null,
            "population4555": null,
            "demandeSoin": 47.0,
            "departement": 1,
            "latitude": 43.7978489409,
            "longitude": 1.73158426557
        }
    },
    {
        "model": "carte.commune",
        "pk": 70,
        "fields": {
            "codePostal": 81340,
            "libCommune": "Courris",
            "population2535": null,
            "population3545": null,
            "population4555": null,
            "demandeSoin": 72.0,
            "departement": 1,
            "latitude": 43.9567412395,
            "longitude": 2.40226789495
        }
    },
    {
        "model": "carte.commune",
        "pk": 71,
        "fields": {
            "codePostal": 81350,
            "libCommune": "Crespin",
            "population2535": null,
            "population3545": null,
            "population4555": null,
            "demandeSoin": 47.0,
            "departement": 1,
            "latitude": 44.0469014925,
            "longitude": 2.30614613299
        }
    },
    {
        "model": "carte.commune",
        "pk": 72,
        "fields": {
            "codePostal": 81350,
            "libCommune": "Crespinet",
            "population2535": null,
            "population3545": null,
            "population4555": null,
            "demandeSoin": 60.0,
            "departement": 1,
            "latitude": 43.9551249562,
            "longitude": 2.29516613633
        }
    },
    {
        "model": "carte.commune",
        "pk": 73,
        "fields": {
            "codePostal": 81990,
            "libCommune": "Cunac",
            "population2535": null,
            "population3545": null,
            "population4555": null,
            "demandeSoin": 47.0,
            "departement": 1,
            "latitude": 43.9274396398,
            "longitude": 2.22514974494
        }
    },
    {
        "model": "carte.commune",
        "pk": 74,
        "fields": {
            "codePostal": 81570,
            "libCommune": "Cuq",
            "population2535": null,
            "population3545": null,
            "population4555": null,
            "demandeSoin": 47.0,
            "departement": 1,
            "latitude": 43.6534622232,
            "longitude": 2.08686344957
        }
    },
    {
        "model": "carte.commune",
        "pk": 75,
        "fields": {
            "codePostal": 81470,
            "libCommune": "Cuq-Toulza",
            "population2535": null,
            "population3545": null,
            "population4555": null,
            "demandeSoin": 32.0,
            "departement": 1,
            "latitude": 43.5623792755,
            "longitude": 1.88686468644
        }
    },
    {
        "model": "carte.commune",
        "pk": 76,
        "fields": {
            "codePostal": 81250,
            "libCommune": "Curvalle",
            "population2535": null,
            "population3545": null,
            "population4555": null,
            "demandeSoin": 72.0,
            "departement": 1,
            "latitude": 43.911329791,
            "longitude": 2.50746154724
        }
    },
    {
        "model": "carte.commune",
        "pk": 77,
        "fields": {
            "codePostal": 81220,
            "libCommune": "Damiatte",
            "population2535": null,
            "population3545": null,
            "population4555": null,
            "demandeSoin": 47.0,
            "departement": 1,
            "latitude": 43.6801644905,
            "longitude": 1.98487101085
        }
    },
    {
        "model": "carte.commune",
        "pk": 78,
        "fields": {
            "codePostal": 81120,
            "libCommune": "Dénat",
            "population2535": null,
            "population3545": null,
            "population4555": null,
            "demandeSoin": 47.0,
            "departement": 1,
            "latitude": 43.8395342344,
            "longitude": 2.20292263193
        }
    },
    {
        "model": "carte.commune",
        "pk": 79,
        "fields": {
            "codePostal": 81170,
            "libCommune": "Donnazac",
            "population2535": null,
            "population3545": null,
            "population4555": null,
            "demandeSoin": 60.0,
            "departement": 1,
            "latitude": 44.0124743506,
            "longitude": 1.94438171897
        }
    },
    {
        "model": "carte.commune",
        "pk": 80,
        "fields": {
            "codePostal": 81110,
            "libCommune": "Dourgne",
            "population2535": null,
            "population3545": null,
            "population4555": null,
            "demandeSoin": 47.0,
            "departement": 1,
            "latitude": 43.4753070746,
            "longitude": 2.14244605538
        }
    },
    {
        "model": "carte.commune",
        "pk": 81,
        "fields": {
            "codePostal": 81082,
            "libCommune": "Le Dourn",
            "population2535": null,
            "population3545": null,
            "population4555": null,
            "demandeSoin": 72.0,
            "departement": 1
        }
    },
    {
        "model": "carte.commune",
        "pk": 82,
        "fields": {
            "codePostal": 81540,
            "libCommune": "Durfort",
            "population2535": null,
            "population3545": null,
            "population4555": null,
            "demandeSoin": 72.0,
            "departement": 1,
            "latitude": 43.4316297615,
            "longitude": 2.07369430679
        }
    },
    {
        "model": "carte.commune",
        "pk": 83,
        "fields": {
            "codePostal": 81290,
            "libCommune": "Escoussens",
            "population2535": null,
            "population3545": null,
            "population4555": null,
            "demandeSoin": 47.0,
            "departement": 1,
            "latitude": 43.4822756264,
            "longitude": 2.22873305615
        }
    },
    {
        "model": "carte.commune",
        "pk": 84,
        "fields": {
            "codePostal": 81530,
            "libCommune": "Escroux",
            "population2535": null,
            "population3545": null,
            "population4555": null,
            "demandeSoin": 47.0,
            "departement": 1,
            "latitude": 43.7575872342,
            "longitude": 2.64191518496
        }
    },
    {
        "model": "carte.commune",
        "pk": 85,
        "fields": {
            "codePostal": 81260,
            "libCommune": "Espérausses",
            "population2535": null,
            "population3545": null,
            "population4555": null,
            "demandeSoin": 60.0,
            "departement": 1,
            "latitude": 43.6998410233,
            "longitude": 2.52506371565
        }
    },
    {
        "model": "carte.commune",
        "pk": 86,
        "fields": {
            "codePostal": 81150,
            "libCommune": "Fayssac",
            "population2535": null,
            "population3545": null,
            "population4555": null,
            "demandeSoin": 47.0,
            "departement": 1,
            "latitude": 43.9601258045,
            "longitude": 1.98037928954
        }
    },
    {
        "model": "carte.commune",
        "pk": 87,
        "fields": {
            "codePostal": 81120,
            "libCommune": "Fauch",
            "population2535": null,
            "population3545": null,
            "population4555": null,
            "demandeSoin": 32.0,
            "departement": 1,
            "latitude": 43.8391719667,
            "longitude": 2.25836350572
        }
    },
    {
        "model": "carte.commune",
        "pk": 88,
        "fields": {
            "codePostal": 81340,
            "libCommune": "Faussergues",
            "population2535": null,
            "population3545": null,
            "population4555": null,
            "demandeSoin": 72.0,
            "departement": 1,
            "latitude": 44.0406000553,
            "longitude": 2.43023975408
        }
    },
    {
        "model": "carte.commune",
        "pk": 89,
        "fields": {
            "codePostal": 81600,
            "libCommune": "Fénols",
            "population2535": null,
            "population3545": null,
            "population4555": null,
            "demandeSoin": 47.0,
            "departement": 1,
            "latitude": 43.8495035215,
            "longitude": 2.0559946114
        }
    },
    {
        "model": "carte.commune",
        "pk": 90,
        "fields": {
            "codePostal": 81500,
            "libCommune": "Fiac",
            "population2535": null,
            "population3545": null,
            "population4555": null,
            "demandeSoin": 47.0,
            "departement": 1,
            "latitude": 43.699007933,
            "longitude": 1.90988416246
        }
    },
    {
        "model": "carte.commune",
        "pk": 91,
        "fields": {
            "codePostal": 81150,
            "libCommune": "Florentin",
            "population2535": null,
            "population3545": null,
            "population4555": null,
            "demandeSoin": 47.0,
            "departement": 1,
            "latitude": 43.8854183688,
            "longitude": 2.02985845557
        }
    },
    {
        "model": "carte.commune",
        "pk": 92,
        "fields": {
            "codePostal": 81340,
            "libCommune": "Fraissines",
            "population2535": null,
            "population3545": null,
            "population4555": null,
            "demandeSoin": 60.0,
            "departement": 1,
            "latitude": 43.9732107109,
            "longitude": 2.50810158198
        }
    },
    {
        "model": "carte.commune",
        "pk": 93,
        "fields": {
            "codePostal": 81170,
            "libCommune": "Frausseilles",
            "population2535": null,
            "population3545": null,
            "population4555": null,
            "demandeSoin": 72.0,
            "departement": 1,
            "latitude": 44.0296677126,
            "longitude": 1.92883903661
        }
    },
    {
        "model": "carte.commune",
        "pk": 94,
        "fields": {
            "codePostal": 81096,
            "libCommune": "Le Fraysse",
            "population2535": null,
            "population3545": null,
            "population4555": null,
            "demandeSoin": 47.0,
            "departement": 1
        }
    },
    {
        "model": "carte.commune",
        "pk": 95,
        "fields": {
            "codePostal": 81990,
            "libCommune": "Fréjairolles",
            "population2535": null,
            "population3545": null,
            "population4555": null,
            "demandeSoin": 47.0,
            "departement": 1,
            "latitude": 43.8786600972,
            "longitude": 2.23043162457
        }
    },
    {
        "model": "carte.commune",
        "pk": 96,
        "fields": {
            "codePostal": 81570,
            "libCommune": "Fréjeville",
            "population2535": null,
            "population3545": null,
            "population4555": null,
            "demandeSoin": 47.0,
            "departement": 1,
            "latitude": 43.6088880274,
            "longitude": 2.14739300043
        }
    },
    {
        "model": "carte.commune",
        "pk": 97,
        "fields": {
            "codePostal": 81600,
            "libCommune": "Gaillac",
            "population2535": null,
            "population3545": null,
            "population4555": null,
            "demandeSoin": 47.0,
            "departement": 1,
            "latitude": 43.9170968776,
            "longitude": 1.88647213801
        }
    },
    {
        "model": "carte.commune",
        "pk": 98,
        "fields": {
            "codePostal": 81700,
            "libCommune": "Garrevaques",
            "population2535": null,
            "population3545": null,
            "population4555": null,
            "demandeSoin": 47.0,
            "departement": 1,
            "latitude": 43.4927448733,
            "longitude": 1.98351501119
        }
    },
    {
        "model": "carte.commune",
        "pk": 99,
        "fields": {
            "codePostal": 81101,
            "libCommune": "Le Garric",
            "population2535": null,
            "population3545": null,
            "population4555": null,
            "demandeSoin": 47.0,
            "departement": 1
        }
    },
    {
        "model": "carte.commune",
        "pk": 100,
        "fields": {
            "codePostal": 81500,
            "libCommune": "Garrigues",
            "population2535": null,
            "population3545": null,
            "population4555": null,
            "demandeSoin": 32.0,
            "departement": 1,
            "latitude": 43.7023216398,
            "longitude": 1.70252072015
        }
    },
    {
        "model": "carte.commune",
        "pk": 101,
        "fields": {
            "codePostal": 81530,
            "libCommune": "Gijounet",
            "population2535": null,
            "population3545": null,
            "population4555": null,
            "demandeSoin": 72.0,
            "departement": 1,
            "latitude": 43.7086383837,
            "longitude": 2.6070098158
        }
    },
    {
        "model": "carte.commune",
        "pk": 102,
        "fields": {
            "codePostal": 81500,
            "libCommune": "Giroussens",
            "population2535": null,
            "population3545": null,
            "population4555": null,
            "demandeSoin": 47.0,
            "departement": 1,
            "latitude": 43.769779769,
            "longitude": 1.7967421125
        }
    },
    {
        "model": "carte.commune",
        "pk": 103,
        "fields": {
            "codePostal": 81300,
            "libCommune": "Graulhet",
            "population2535": null,
            "population3545": null,
            "population4555": null,
            "demandeSoin": 47.0,
            "departement": 1,
            "latitude": 43.7576562195,
            "longitude": 2.00122512851
        }
    },
    {
        "model": "carte.commune",
        "pk": 104,
        "fields": {
            "codePostal": 81800,
            "libCommune": "Grazac",
            "population2535": null,
            "population3545": null,
            "population4555": null,
            "demandeSoin": 47.0,
            "departement": 1,
            "latitude": 43.8499819976,
            "longitude": 1.64948464034
        }
    },
    {
        "model": "carte.commune",
        "pk": 105,
        "fields": {
            "codePostal": 81170,
            "libCommune": "Itzac",
            "population2535": null,
            "population3545": null,
            "population4555": null,
            "demandeSoin": 72.0,
            "departement": 1,
            "latitude": 44.0506305724,
            "longitude": 1.84654889285
        }
    },
    {
        "model": "carte.commune",
        "pk": 106,
        "fields": {
            "codePostal": 81440,
            "libCommune": "Jonquières",
            "population2535": null,
            "population3545": null,
            "population4555": null,
            "demandeSoin": 72.0,
            "departement": 1,
            "latitude": 43.6585990989,
            "longitude": 2.14341169546
        }
    },
    {
        "model": "carte.commune",
        "pk": 107,
        "fields": {
            "codePostal": 81190,
            "libCommune": "Jouqueviel",
            "population2535": null,
            "population3545": null,
            "population4555": null,
            "demandeSoin": 72.0,
            "departement": 1,
            "latitude": 44.1816769141,
            "longitude": 2.13340021405
        }
    },
    {
        "model": "carte.commune",
        "pk": 108,
        "fields": {
            "codePostal": 81170,
            "libCommune": "Labarthe-Bleys",
            "population2535": null,
            "population3545": null,
            "population4555": null,
            "demandeSoin": 72.0,
            "departement": 1,
            "latitude": 44.0838134122,
            "longitude": 1.89558851535
        }
    },
    {
        "model": "carte.commune",
        "pk": 109,
        "fields": {
            "codePostal": 81150,
            "libCommune": "Labastide-de-Lévis",
            "population2535": null,
            "population3545": null,
            "population4555": null,
            "demandeSoin": 47.0,
            "departement": 1,
            "latitude": 43.9310810991,
            "longitude": 2.00269049249
        }
    },
    {
        "model": "carte.commune",
        "pk": 110,
        "fields": {
            "codePostal": 81400,
            "libCommune": "Labastide-Gabausse",
            "population2535": null,
            "population3545": null,
            "population4555": null,
            "demandeSoin": 47.0,
            "departement": 1,
            "latitude": 44.0310798873,
            "longitude": 2.09978207665
        }
    },
    {
        "model": "carte.commune",
        "pk": 111,
        "fields": {
            "codePostal": 81270,
            "libCommune": "Labastide-Rouairoux",
            "population2535": null,
            "population3545": null,
            "population4555": null,
            "demandeSoin": 72.0,
            "departement": 1,
            "latitude": 43.4826602247,
            "longitude": 2.63557921234
        }
    },
    {
        "model": "carte.commune",
        "pk": 112,
        "fields": {
            "codePostal": 81500,
            "libCommune": "Labastide-Saint-Georges",
            "population2535": null,
            "population3545": null,
            "population4555": null,
            "demandeSoin": 47.0,
            "departement": 1,
            "latitude": 43.6998934044,
            "longitude": 1.84536170011
        }
    },
    {
        "model": "carte.commune",
        "pk": 113,
        "fields": {
            "codePostal": 81300,
            "libCommune": "Labessière-Candeil",
            "population2535": null,
            "population3545": null,
            "population4555": null,
            "demandeSoin": 47.0,
            "departement": 1,
            "latitude": 43.8006328321,
            "longitude": 2.02071432029
        }
    },
    {
        "model": "carte.commune",
        "pk": 114,
        "fields": {
            "codePostal": 81100,
            "libCommune": "Laboulbène",
            "population2535": null,
            "population3545": null,
            "population4555": null,
            "demandeSoin": 60.0,
            "departement": 1,
            "latitude": 43.6660569606,
            "longitude": 2.20401840916
        }
    },
    {
        "model": "carte.commune",
        "pk": 115,
        "fields": {
            "codePostal": 81120,
            "libCommune": "Laboutarie",
            "population2535": null,
            "population3545": null,
            "population4555": null,
            "demandeSoin": 32.0,
            "departement": 1,
            "latitude": 43.7886845517,
            "longitude": 2.11353900719
        }
    },
    {
        "model": "carte.commune",
        "pk": 116,
        "fields": {
            "codePostal": 81290,
            "libCommune": "Labruguière",
            "population2535": null,
            "population3545": null,
            "population4555": null,
            "demandeSoin": 47.0,
            "departement": 1,
            "latitude": 43.5090050313,
            "longitude": 2.26662007488
        }
    },
    {
        "model": "carte.commune",
        "pk": 117,
        "fields": {
            "codePostal": 81240,
            "libCommune": "Lacabarède",
            "population2535": null,
            "population3545": null,
            "population4555": null,
            "demandeSoin": 72.0,
            "departement": 1,
            "latitude": 43.4490307181,
            "longitude": 2.593058648
        }
    },
    {
        "model": "carte.commune",
        "pk": 118,
        "fields": {
            "codePostal": 81340,
            "libCommune": "Lacapelle-Pinet",
            "population2535": null,
            "population3545": null,
            "population4555": null,
            "demandeSoin": 47.0,
            "departement": 1,
            "latitude": 44.0677076414,
            "longitude": 2.35434693156
        }
    },
    {
        "model": "carte.commune",
        "pk": 119,
        "fields": {
            "codePostal": 81170,
            "libCommune": "Lacapelle-Ségalar",
            "population2535": null,
            "population3545": null,
            "population4555": null,
            "demandeSoin": 72.0,
            "departement": 1,
            "latitude": 44.1174207039,
            "longitude": 1.99686305545
        }
    },
    {
        "model": "carte.commune",
        "pk": 120,
        "fields": {
            "codePostal": 81230,
            "libCommune": "Lacaune",
            "population2535": null,
            "population3545": null,
            "population4555": null,
            "demandeSoin": 47.0,
            "departement": 1,
            "latitude": 43.6972753085,
            "longitude": 2.68833285874
        }
    },
    {
        "model": "carte.commune",
        "pk": 121,
        "fields": {
            "codePostal": 81330,
            "libCommune": "Lacaze",
            "population2535": null,
            "population3545": null,
            "population4555": null,
            "demandeSoin": 72.0,
            "departement": 1,
            "latitude": 43.7430264431,
            "longitude": 2.50920247729
        }
    },
    {
        "model": "carte.commune",
        "pk": 122,
        "fields": {
            "codePostal": 81500,
            "libCommune": "Lacougotte-Cadoul",
            "population2535": null,
            "population3545": null,
            "population4555": null,
            "demandeSoin": 47.0,
            "departement": 1,
            "latitude": 43.6418245193,
            "longitude": 1.82103741651
        }
    },
    {
        "model": "carte.commune",
        "pk": 123,
        "fields": {
            "codePostal": 81470,
            "libCommune": "Lacroisille",
            "population2535": null,
            "population3545": null,
            "population4555": null,
            "demandeSoin": 47.0,
            "departement": 1,
            "latitude": 43.58053089,
            "longitude": 1.92863316637
        }
    },
    {
        "model": "carte.commune",
        "pk": 124,
        "fields": {
            "codePostal": 81210,
            "libCommune": "Lacrouzette",
            "population2535": null,
            "population3545": null,
            "population4555": null,
            "demandeSoin": 47.0,
            "departement": 1,
            "latitude": 43.6622260196,
            "longitude": 2.36167467964
        }
    },
    {
        "model": "carte.commune",
        "pk": 125,
        "fields": {
            "codePostal": 81110,
            "libCommune": "Lagardiolle",
            "population2535": null,
            "population3545": null,
            "population4555": null,
            "demandeSoin": 32.0,
            "departement": 1,
            "latitude": 43.4996169804,
            "longitude": 2.0926664241
        }
    },
    {
        "model": "carte.commune",
        "pk": 126,
        "fields": {
            "codePostal": 81090,
            "libCommune": "Lagarrigue",
            "population2535": null,
            "population3545": null,
            "population4555": null,
            "demandeSoin": 72.0,
            "departement": 1,
            "latitude": 43.5759645911,
            "longitude": 2.28583565829
        }
    },
    {
        "model": "carte.commune",
        "pk": 127,
        "fields": {
            "codePostal": 81150,
            "libCommune": "Lagrave",
            "population2535": null,
            "population3545": null,
            "population4555": null,
            "demandeSoin": 47.0,
            "departement": 1,
            "latitude": 43.8931087297,
            "longitude": 1.99033789406
        }
    },
    {
        "model": "carte.commune",
        "pk": 128,
        "fields": {
            "codePostal": 81220,
            "libCommune": "Guitalens-L'Albarède",
            "population2535": null,
            "population3545": null,
            "population4555": null,
            "demandeSoin": 47.0,
            "departement": 1,
            "latitude": 43.6378592707,
            "longitude": 2.04358289042
        }
    },
    {
        "model": "carte.commune",
        "pk": 129,
        "fields": {
            "codePostal": 81120,
            "libCommune": "Lamillarié",
            "population2535": null,
            "population3545": null,
            "population4555": null,
            "demandeSoin": 47.0,
            "departement": 1,
            "latitude": 43.8550180871,
            "longitude": 2.15786661498
        }
    },
    {
        "model": "carte.commune",
        "pk": 130,
        "fields": {
            "codePostal": 81260,
            "libCommune": "Lamontélarié",
            "population2535": null,
            "population3545": null,
            "population4555": null,
            "demandeSoin": 72.0,
            "departement": 1,
            "latitude": 43.6201473366,
            "longitude": 2.6080895123
        }
    },
    {
        "model": "carte.commune",
        "pk": 131,
        "fields": {
            "codePostal": 81640,
            "libCommune": "Laparrouquial",
            "population2535": null,
            "population3545": null,
            "population4555": null,
            "demandeSoin": 72.0,
            "departement": 1,
            "latitude": 44.1216197815,
            "longitude": 2.02846018136
        }
    },
    {
        "model": "carte.commune",
        "pk": 132,
        "fields": {
            "codePostal": 81140,
            "libCommune": "Larroque",
            "population2535": null,
            "population3545": null,
            "population4555": null,
            "demandeSoin": 60.0,
            "departement": 1,
            "latitude": 44.0083844325,
            "longitude": 1.68734477168
        }
    },
    {
        "model": "carte.commune",
        "pk": 133,
        "fields": {
            "codePostal": 81260,
            "libCommune": "Lasfaillades",
            "population2535": null,
            "population3545": null,
            "population4555": null,
            "demandeSoin": 72.0,
            "departement": 1,
            "latitude": 43.5636947097,
            "longitude": 2.50028981055
        }
    },
    {
        "model": "carte.commune",
        "pk": 134,
        "fields": {
            "codePostal": 81300,
            "libCommune": "Lasgraisses",
            "population2535": null,
            "population3545": null,
            "population4555": null,
            "demandeSoin": 32.0,
            "departement": 1,
            "latitude": 43.8230864344,
            "longitude": 2.03526038178
        }
    },
    {
        "model": "carte.commune",
        "pk": 135,
        "fields": {
            "codePostal": 81440,
            "libCommune": "Lautrec",
            "population2535": null,
            "population3545": null,
            "population4555": null,
            "demandeSoin": 47.0,
            "departement": 1,
            "latitude": 43.7052468491,
            "longitude": 2.12929403349
        }
    },
    {
        "model": "carte.commune",
        "pk": 136,
        "fields": {
            "codePostal": 81500,
            "libCommune": "Lavaur",
            "population2535": null,
            "population3545": null,
            "population4555": null,
            "demandeSoin": 47.0,
            "departement": 1,
            "latitude": 43.6895628711,
            "longitude": 1.79437213708
        }
    },
    {
        "model": "carte.commune",
        "pk": 137,
        "fields": {
            "codePostal": 81340,
            "libCommune": "Lédas-et-Penthiès",
            "population2535": null,
            "population3545": null,
            "population4555": null,
            "demandeSoin": 72.0,
            "departement": 1,
            "latitude": 44.0788993791,
            "longitude": 2.38301676967
        }
    },
    {
        "model": "carte.commune",
        "pk": 138,
        "fields": {
            "codePostal": 81700,
            "libCommune": "Lempaut",
            "population2535": null,
            "population3545": null,
            "population4555": null,
            "demandeSoin": 47.0,
            "departement": 1,
            "latitude": 43.5250362218,
            "longitude": 2.06781659289
        }
    },
    {
        "model": "carte.commune",
        "pk": 139,
        "fields": {
            "codePostal": 81110,
            "libCommune": "Lescout",
            "population2535": null,
            "population3545": null,
            "population4555": null,
            "demandeSoin": 32.0,
            "departement": 1,
            "latitude": 43.5334899853,
            "longitude": 2.10628478889
        }
    },
    {
        "model": "carte.commune",
        "pk": 140,
        "fields": {
            "codePostal": 81380,
            "libCommune": "Lescure-d'Albigeois",
            "population2535": null,
            "population3545": null,
            "population4555": null,
            "demandeSoin": 47.0,
            "departement": 1,
            "latitude": 43.9656164383,
            "longitude": 2.18230929953
        }
    },
    {
        "model": "carte.commune",
        "pk": 141,
        "fields": {
            "codePostal": 81310,
            "libCommune": "Lisle-sur-Tarn",
            "population2535": null,
            "population3545": null,
            "population4555": null,
            "demandeSoin": 47.0,
            "departement": 1,
            "latitude": 43.8974980421,
            "longitude": 1.78200143861
        }
    },
    {
        "model": "carte.commune",
        "pk": 142,
        "fields": {
            "codePostal": 81170,
            "libCommune": "Livers-Cazelles",
            "population2535": null,
            "population3545": null,
            "population4555": null,
            "demandeSoin": 72.0,
            "departement": 1,
            "latitude": 44.0494424357,
            "longitude": 2.00041907308
        }
    },
    {
        "model": "carte.commune",
        "pk": 143,
        "fields": {
            "codePostal": 81120,
            "libCommune": "Lombers",
            "population2535": null,
            "population3545": null,
            "population4555": null,
            "demandeSoin": 47.0,
            "departement": 1,
            "latitude": 43.8159438532,
            "longitude": 2.1438851027
        }
    },
    {
        "model": "carte.commune",
        "pk": 144,
        "fields": {
            "codePostal": 81170,
            "libCommune": "Loubers",
            "population2535": null,
            "population3545": null,
            "population4555": null,
            "demandeSoin": 60.0,
            "departement": 1,
            "latitude": 44.0377793598,
            "longitude": 1.8934533217
        }
    },
    {
        "model": "carte.commune",
        "pk": 145,
        "fields": {
            "codePostal": 81800,
            "libCommune": "Loupiac",
            "population2535": null,
            "population3545": null,
            "population4555": null,
            "demandeSoin": 47.0,
            "departement": 1,
            "latitude": 43.8241806897,
            "longitude": 1.78265206515
        }
    },
    {
        "model": "carte.commune",
        "pk": 146,
        "fields": {
            "codePostal": 81500,
            "libCommune": "Lugan",
            "population2535": null,
            "population3545": null,
            "population4555": null,
            "demandeSoin": 47.0,
            "departement": 1,
            "latitude": 43.7330225833,
            "longitude": 1.71750529961
        }
    },
    {
        "model": "carte.commune",
        "pk": 147,
        "fields": {
            "codePostal": 81220,
            "libCommune": "Magrin",
            "population2535": null,
            "population3545": null,
            "population4555": null,
            "demandeSoin": 47.0,
            "departement": 1,
            "latitude": 43.61527201,
            "longitude": 1.9211779967
        }
    },
    {
        "model": "carte.commune",
        "pk": 148,
        "fields": {
            "codePostal": 81130,
            "libCommune": "Mailhoc",
            "population2535": null,
            "population3545": null,
            "population4555": null,
            "demandeSoin": 32.0,
            "departement": 1,
            "latitude": 44.00390722,
            "longitude": 2.07332780966
        }
    },
    {
        "model": "carte.commune",
        "pk": 149,
        "fields": {
            "codePostal": 81170,
            "libCommune": "Marnaves",
            "population2535": null,
            "population3545": null,
            "population4555": null,
            "demandeSoin": 60.0,
            "departement": 1,
            "latitude": 44.0959603431,
            "longitude": 1.87162676035
        }
    },
    {
        "model": "carte.commune",
        "pk": 150,
        "fields": {
            "codePostal": 81150,
            "libCommune": "Marssac-sur-Tarn",
            "population2535": null,
            "population3545": null,
            "population4555": null,
            "demandeSoin": 47.0,
            "departement": 1,
            "latitude": 43.9102726323,
            "longitude": 2.03641141101
        }
    },
    {
        "model": "carte.commune",
        "pk": 151,
        "fields": {
            "codePostal": 81500,
            "libCommune": "Marzens",
            "population2535": null,
            "population3545": null,
            "population4555": null,
            "demandeSoin": 60.0,
            "departement": 1,
            "latitude": 43.6542488768,
            "longitude": 1.84294854921
        }
    },
    {
        "model": "carte.commune",
        "pk": 152,
        "fields": {
            "codePostal": 81158,
            "libCommune": "Le Masnau-Massuguiès",
            "population2535": null,
            "population3545": null,
            "population4555": null,
            "demandeSoin": 72.0,
            "departement": 1
        }
    },
    {
        "model": "carte.commune",
        "pk": 153,
        "fields": {
            "codePostal": 81500,
            "libCommune": "Massac-Séran",
            "population2535": null,
            "population3545": null,
            "population4555": null,
            "demandeSoin": 47.0,
            "departement": 1,
            "latitude": 43.6683120665,
            "longitude": 1.86258553389
        }
    },
    {
        "model": "carte.commune",
        "pk": 154,
        "fields": {
            "codePostal": 81110,
            "libCommune": "Massaguel",
            "population2535": null,
            "population3545": null,
            "population4555": null,
            "demandeSoin": 72.0,
            "departement": 1,
            "latitude": 43.4756759795,
            "longitude": 2.17631948786
        }
    },
    {
        "model": "carte.commune",
        "pk": 155,
        "fields": {
            "codePostal": 81250,
            "libCommune": "Massals",
            "population2535": null,
            "population3545": null,
            "population4555": null,
            "demandeSoin": 47.0,
            "departement": 1,
            "latitude": 43.8582915484,
            "longitude": 2.52110996893
        }
    },
    {
        "model": "carte.commune",
        "pk": 156,
        "fields": {
            "codePostal": 81470,
            "libCommune": "Maurens-Scopont",
            "population2535": null,
            "population3545": null,
            "population4555": null,
            "demandeSoin": 47.0,
            "departement": 1,
            "latitude": 43.5965308671,
            "longitude": 1.81343450611
        }
    },
    {
        "model": "carte.commune",
        "pk": 157,
        "fields": {
            "codePostal": 81200,
            "libCommune": "Mazamet",
            "population2535": null,
            "population3545": null,
            "population4555": null,
            "demandeSoin": 72.0,
            "departement": 1,
            "latitude": 43.4578780341,
            "longitude": 2.3885346913
        }
    },
    {
        "model": "carte.commune",
        "pk": 158,
        "fields": {
            "codePostal": 81800,
            "libCommune": "Mézens",
            "population2535": null,
            "population3545": null,
            "population4555": null,
            "demandeSoin": 32.0,
            "departement": 1,
            "latitude": 43.7911506401,
            "longitude": 1.65853736504
        }
    },
    {
        "model": "carte.commune",
        "pk": 159,
        "fields": {
            "codePostal": 81170,
            "libCommune": "Milhars",
            "population2535": null,
            "population3545": null,
            "population4555": null,
            "demandeSoin": 72.0,
            "departement": 1,
            "latitude": 44.1227182576,
            "longitude": 1.87476688582
        }
    },
    {
        "model": "carte.commune",
        "pk": 160,
        "fields": {
            "codePostal": 81130,
            "libCommune": "Milhavet",
            "population2535": null,
            "population3545": null,
            "population4555": null,
            "demandeSoin": 72.0,
            "departement": 1,
            "latitude": 44.0326429455,
            "longitude": 2.02741008603
        }
    },
    {
        "model": "carte.commune",
        "pk": 161,
        "fields": {
            "codePostal": 81250,
            "libCommune": "Miolles",
            "population2535": null,
            "population3545": null,
            "population4555": null,
            "demandeSoin": 47.0,
            "departement": 1,
            "latitude": 43.8782226811,
            "longitude": 2.55075875276
        }
    },
    {
        "model": "carte.commune",
        "pk": 162,
        "fields": {
            "codePostal": 81190,
            "libCommune": "Mirandol-Bourgnounac",
            "population2535": null,
            "population3545": null,
            "population4555": null,
            "demandeSoin": 72.0,
            "departement": 1,
            "latitude": 44.1468118913,
            "longitude": 2.17074535227
        }
    },
    {
        "model": "carte.commune",
        "pk": 163,
        "fields": {
            "codePostal": 81300,
            "libCommune": "Missècle",
            "population2535": null,
            "population3545": null,
            "population4555": null,
            "demandeSoin": 47.0,
            "departement": 1,
            "latitude": 43.7204559447,
            "longitude": 1.98643784492
        }
    },
    {
        "model": "carte.commune",
        "pk": 164,
        "fields": {
            "codePostal": 81640,
            "libCommune": "Monestiés",
            "population2535": null,
            "population3545": null,
            "population4555": null,
            "demandeSoin": 72.0,
            "departement": 1,
            "latitude": 44.0787915889,
            "longitude": 2.09845237087
        }
    },
    {
        "model": "carte.commune",
        "pk": 165,
        "fields": {
            "codePostal": 81600,
            "libCommune": "Montans",
            "population2535": null,
            "population3545": null,
            "population4555": null,
            "demandeSoin": 47.0,
            "departement": 1,
            "latitude": 43.850225684,
            "longitude": 1.86631554262
        }
    },
    {
        "model": "carte.commune",
        "pk": 166,
        "fields": {
            "codePostal": 81190,
            "libCommune": "Montauriol",
            "population2535": null,
            "population3545": null,
            "population4555": null,
            "demandeSoin": 72.0,
            "departement": 1,
            "latitude": 44.0815510672,
            "longitude": 2.32726239581
        }
    },
    {
        "model": "carte.commune",
        "pk": 167,
        "fields": {
            "codePostal": 81500,
            "libCommune": "Montcabrier",
            "population2535": null,
            "population3545": null,
            "population4555": null,
            "demandeSoin": 47.0,
            "departement": 1,
            "latitude": 43.6216995124,
            "longitude": 1.73631591494
        }
    },
    {
        "model": "carte.commune",
        "pk": 168,
        "fields": {
            "codePostal": 81440,
            "libCommune": "Montdragon",
            "population2535": null,
            "population3545": null,
            "population4555": null,
            "demandeSoin": 47.0,
            "departement": 1,
            "latitude": 43.7753099488,
            "longitude": 2.09549518318
        }
    },
    {
        "model": "carte.commune",
        "pk": 169,
        "fields": {
            "codePostal": 81630,
            "libCommune": "Montdurausse",
            "population2535": null,
            "population3545": null,
            "population4555": null,
            "demandeSoin": 47.0,
            "departement": 1,
            "latitude": 43.9525325063,
            "longitude": 1.59348701072
        }
    },
    {
        "model": "carte.commune",
        "pk": 170,
        "fields": {
            "codePostal": 81140,
            "libCommune": "Montels",
            "population2535": null,
            "population3545": null,
            "population4555": null,
            "demandeSoin": 47.0,
            "departement": 1,
            "latitude": 43.9645484948,
            "longitude": 1.88698205993
        }
    },
    {
        "model": "carte.commune",
        "pk": 171,
        "fields": {
            "codePostal": 81210,
            "libCommune": "Montfa",
            "population2535": null,
            "population3545": null,
            "population4555": null,
            "demandeSoin": 47.0,
            "departement": 1,
            "latitude": 43.7002321561,
            "longitude": 2.22942914563
        }
    },
    {
        "model": "carte.commune",
        "pk": 172,
        "fields": {
            "codePostal": 81630,
            "libCommune": "Montgaillard",
            "population2535": null,
            "population3545": null,
            "population4555": null,
            "demandeSoin": 47.0,
            "departement": 1,
            "latitude": 43.9080851557,
            "longitude": 1.60943104266
        }
    },
    {
        "model": "carte.commune",
        "pk": 173,
        "fields": {
            "codePostal": 81470,
            "libCommune": "Montgey",
            "population2535": null,
            "population3545": null,
            "population4555": null,
            "demandeSoin": 47.0,
            "departement": 1,
            "latitude": 43.5093604,
            "longitude": 1.9451968725
        }
    },
    {
        "model": "carte.commune",
        "pk": 174,
        "fields": {
            "codePostal": 81190,
            "libCommune": "Montirat",
            "population2535": null,
            "population3545": null,
            "population4555": null,
            "demandeSoin": 72.0,
            "departement": 1,
            "latitude": 44.1584171912,
            "longitude": 2.092684783
        }
    },
    {
        "model": "carte.commune",
        "pk": 175,
        "fields": {
            "codePostal": 81440,
            "libCommune": "Montpinier",
            "population2535": null,
            "population3545": null,
            "population4555": null,
            "demandeSoin": 72.0,
            "departement": 1,
            "latitude": 43.6789611247,
            "longitude": 2.18996517245
        }
    },
    {
        "model": "carte.commune",
        "pk": 176,
        "fields": {
            "codePostal": 81360,
            "libCommune": "Montredon-Labessonnié",
            "population2535": null,
            "population3545": null,
            "population4555": null,
            "demandeSoin": 72.0,
            "departement": 1,
            "latitude": 43.7243034141,
            "longitude": 2.32124891411
        }
    },
    {
        "model": "carte.commune",
        "pk": 177,
        "fields": {
            "codePostal": 81120,
            "libCommune": "Mont-Roc",
            "population2535": null,
            "population3545": null,
            "population4555": null,
            "demandeSoin": 72.0,
            "departement": 1,
            "latitude": 43.8056390894,
            "longitude": 2.37632529774
        }
    },
    {
        "model": "carte.commune",
        "pk": 178,
        "fields": {
            "codePostal": 81170,
            "libCommune": "Montrosier",
            "population2535": null,
            "population3545": null,
            "population4555": null,
            "demandeSoin": 47.0,
            "departement": 1,
            "latitude": 44.1302381155,
            "longitude": 1.84091338428
        }
    },
    {
        "model": "carte.commune",
        "pk": 179,
        "fields": {
            "codePostal": 81630,
            "libCommune": "Montvalen",
            "population2535": null,
            "population3545": null,
            "population4555": null,
            "demandeSoin": 47.0,
            "departement": 1,
            "latitude": 43.8568846629,
            "longitude": 1.59279252787
        }
    },
    {
        "model": "carte.commune",
        "pk": 180,
        "fields": {
            "codePostal": 81190,
            "libCommune": "Moularès",
            "population2535": null,
            "population3545": null,
            "population4555": null,
            "demandeSoin": 47.0,
            "departement": 1,
            "latitude": 44.0770712635,
            "longitude": 2.28567831942
        }
    },
    {
        "model": "carte.commune",
        "pk": 181,
        "fields": {
            "codePostal": 81300,
            "libCommune": "Moulayrès",
            "population2535": null,
            "population3545": null,
            "population4555": null,
            "demandeSoin": 47.0,
            "departement": 1,
            "latitude": 43.7043614884,
            "longitude": 2.02400479753
        }
    },
    {
        "model": "carte.commune",
        "pk": 182,
        "fields": {
            "codePostal": 81320,
            "libCommune": "Moulin-Mage",
            "population2535": null,
            "population3545": null,
            "population4555": null,
            "demandeSoin": 72.0,
            "departement": 1,
            "latitude": 43.7198358431,
            "longitude": 2.77600372304
        }
    },
    {
        "model": "carte.commune",
        "pk": 183,
        "fields": {
            "codePostal": 81470,
            "libCommune": "Mouzens",
            "population2535": null,
            "population3545": null,
            "population4555": null,
            "demandeSoin": 72.0,
            "departement": 1,
            "latitude": 43.5319509322,
            "longitude": 1.88969318814
        }
    },
    {
        "model": "carte.commune",
        "pk": 184,
        "fields": {
            "codePostal": 81430,
            "libCommune": "Mouzieys-Teulet",
            "population2535": null,
            "population3545": null,
            "population4555": null,
            "demandeSoin": 47.0,
            "departement": 1,
            "latitude": 43.8784071137,
            "longitude": 2.27301087499
        }
    },
    {
        "model": "carte.commune",
        "pk": 185,
        "fields": {
            "codePostal": 81170,
            "libCommune": "Mouzieys-Panens",
            "population2535": null,
            "population3545": null,
            "population4555": null,
            "demandeSoin": 60.0,
            "departement": 1,
            "latitude": 44.1054127277,
            "longitude": 1.93295083712
        }
    },
    {
        "model": "carte.commune",
        "pk": 186,
        "fields": {
            "codePostal": 81320,
            "libCommune": "Murat-sur-Vèbre",
            "population2535": null,
            "population3545": null,
            "population4555": null,
            "demandeSoin": 72.0,
            "departement": 1,
            "latitude": 43.6933887734,
            "longitude": 2.86020880416
        }
    },
    {
        "model": "carte.commune",
        "pk": 187,
        "fields": {
            "codePostal": 81320,
            "libCommune": "Nages",
            "population2535": null,
            "population3545": null,
            "population4555": null,
            "demandeSoin": 72.0,
            "departement": 1,
            "latitude": 43.6552500553,
            "longitude": 2.77047071687
        }
    },
    {
        "model": "carte.commune",
        "pk": 188,
        "fields": {
            "codePostal": 81710,
            "libCommune": "Navès",
            "population2535": null,
            "population3545": null,
            "population4555": null,
            "demandeSoin": 47.0,
            "departement": 1,
            "latitude": 43.5644376165,
            "longitude": 2.21838218726
        }
    },
    {
        "model": "carte.commune",
        "pk": 189,
        "fields": {
            "codePostal": 81490,
            "libCommune": "Noailhac",
            "population2535": null,
            "population3545": null,
            "population4555": null,
            "demandeSoin": 47.0,
            "departement": 1,
            "latitude": 43.5760317808,
            "longitude": 2.35409410035
        }
    },
    {
        "model": "carte.commune",
        "pk": 190,
        "fields": {
            "codePostal": 81170,
            "libCommune": "Noailles",
            "population2535": null,
            "population3545": null,
            "population4555": null,
            "demandeSoin": 72.0,
            "departement": 1,
            "latitude": 44.0122054489,
            "longitude": 1.99020662698
        }
    },
    {
        "model": "carte.commune",
        "pk": 191,
        "fields": {
            "codePostal": 81120,
            "libCommune": "Orban",
            "population2535": null,
            "population3545": null,
            "population4555": null,
            "demandeSoin": 47.0,
            "departement": 1,
            "latitude": 43.8372858734,
            "longitude": 2.0783975338
        }
    },
    {
        "model": "carte.commune",
        "pk": 192,
        "fields": {
            "codePostal": 81340,
            "libCommune": "Padiès",
            "population2535": null,
            "population3545": null,
            "population4555": null,
            "demandeSoin": 60.0,
            "departement": 1,
            "latitude": 44.0448721385,
            "longitude": 2.36414366845
        }
    },
    {
        "model": "carte.commune",
        "pk": 193,
        "fields": {
            "codePostal": 81700,
            "libCommune": "Palleville",
            "population2535": null,
            "population3545": null,
            "population4555": null,
            "demandeSoin": 60.0,
            "departement": 1,
            "latitude": 43.5037421049,
            "longitude": 1.9961127405
        }
    },
    {
        "model": "carte.commune",
        "pk": 194,
        "fields": {
            "codePostal": 81190,
            "libCommune": "Pampelonne",
            "population2535": null,
            "population3545": null,
            "population4555": null,
            "demandeSoin": 72.0,
            "departement": 1,
            "latitude": 44.1158346297,
            "longitude": 2.24230073337
        }
    },
    {
        "model": "carte.commune",
        "pk": 195,
        "fields": {
            "codePostal": 81310,
            "libCommune": "Parisot",
            "population2535": null,
            "population3545": null,
            "population4555": null,
            "demandeSoin": 47.0,
            "departement": 1,
            "latitude": 43.8046304256,
            "longitude": 1.83642655485
        }
    },
    {
        "model": "carte.commune",
        "pk": 196,
        "fields": {
            "codePostal": 81250,
            "libCommune": "Paulinet",
            "population2535": null,
            "population3545": null,
            "population4555": null,
            "demandeSoin": 60.0,
            "departement": 1,
            "latitude": 43.8471083699,
            "longitude": 2.43945006878
        }
    },
    {
        "model": "carte.commune",
        "pk": 197,
        "fields": {
            "codePostal": 81660,
            "libCommune": "Payrin-Augmontel",
            "population2535": null,
            "population3545": null,
            "population4555": null,
            "demandeSoin": 72.0,
            "departement": 1,
            "latitude": 43.538512955,
            "longitude": 2.34476965371
        }
    },
    {
        "model": "carte.commune",
        "pk": 198,
        "fields": {
            "codePostal": 81470,
            "libCommune": "Péchaudier",
            "population2535": null,
            "population3545": null,
            "population4555": null,
            "demandeSoin": 47.0,
            "departement": 1,
            "latitude": 43.5445327743,
            "longitude": 1.94651910659
        }
    },
    {
        "model": "carte.commune",
        "pk": 199,
        "fields": {
            "codePostal": 81140,
            "libCommune": "Penne",
            "population2535": null,
            "population3545": null,
            "population4555": null,
            "demandeSoin": 47.0,
            "departement": 1,
            "latitude": 44.083378684,
            "longitude": 1.72222569874
        }
    },
    {
        "model": "carte.commune",
        "pk": 200,
        "fields": {
            "codePostal": 81440,
            "libCommune": "Peyregoux",
            "population2535": null,
            "population3545": null,
            "population4555": null,
            "demandeSoin": 60.0,
            "departement": 1,
            "latitude": 43.7005423286,
            "longitude": 2.19477882918
        }
    },
    {
        "model": "carte.commune",
        "pk": 201,
        "fields": {
            "codePostal": 81310,
            "libCommune": "Peyrole",
            "population2535": null,
            "population3545": null,
            "population4555": null,
            "demandeSoin": 47.0,
            "departement": 1,
            "latitude": 43.8140246495,
            "longitude": 1.89716126791
        }
    },
    {
        "model": "carte.commune",
        "pk": 202,
        "fields": {
            "codePostal": 81660,
            "libCommune": "Pont-de-Larn",
            "population2535": null,
            "population3545": null,
            "population4555": null,
            "demandeSoin": 47.0,
            "departement": 1,
            "latitude": 43.5308469607,
            "longitude": 2.40980470346
        }
    },
    {
        "model": "carte.commune",
        "pk": 203,
        "fields": {
            "codePostal": 81700,
            "libCommune": "Poudis",
            "population2535": null,
            "population3545": null,
            "population4555": null,
            "demandeSoin": 32.0,
            "departement": 1,
            "latitude": 43.5242225907,
            "longitude": 1.98138103273
        }
    },
    {
        "model": "carte.commune",
        "pk": 204,
        "fields": {
            "codePostal": 81120,
            "libCommune": "Poulan-Pouzols",
            "population2535": null,
            "population3545": null,
            "population4555": null,
            "demandeSoin": 47.0,
            "departement": 1,
            "latitude": 43.8582952155,
            "longitude": 2.10793696053
        }
    },
    {
        "model": "carte.commune",
        "pk": 205,
        "fields": {
            "codePostal": 81220,
            "libCommune": "Prades",
            "population2535": null,
            "population3545": null,
            "population4555": null,
            "demandeSoin": 47.0,
            "departement": 1,
            "latitude": 43.6119091506,
            "longitude": 1.9714190668
        }
    },
    {
        "model": "carte.commune",
        "pk": 206,
        "fields": {
            "codePostal": 81500,
            "libCommune": "Pratviel",
            "population2535": null,
            "population3545": null,
            "population4555": null,
            "demandeSoin": 47.0,
            "departement": 1,
            "latitude": 43.638704181,
            "longitude": 1.88490760875
        }
    },
    {
        "model": "carte.commune",
        "pk": 207,
        "fields": {
            "codePostal": 81470,
            "libCommune": "Puéchoursi",
            "population2535": null,
            "population3545": null,
            "population4555": null,
            "demandeSoin": 47.0,
            "departement": 1,
            "latitude": 43.5139823585,
            "longitude": 1.90748676323
        }
    },
    {
        "model": "carte.commune",
        "pk": 208,
        "fields": {
            "codePostal": 81390,
            "libCommune": "Puybegon",
            "population2535": null,
            "population3545": null,
            "population4555": null,
            "demandeSoin": 47.0,
            "departement": 1,
            "latitude": 43.7801538016,
            "longitude": 1.89684517296
        }
    },
    {
        "model": "carte.commune",
        "pk": 209,
        "fields": {
            "codePostal": 81440,
            "libCommune": "Puycalvel",
            "population2535": null,
            "population3545": null,
            "population4555": null,
            "demandeSoin": 47.0,
            "departement": 1,
            "latitude": 43.6838355288,
            "longitude": 2.07099624199
        }
    },
    {
        "model": "carte.commune",
        "pk": 210,
        "fields": {
            "codePostal": 81140,
            "libCommune": "Puycelsi",
            "population2535": null,
            "population3545": null,
            "population4555": null,
            "demandeSoin": 72.0,
            "departement": 1,
            "latitude": 43.9765161784,
            "longitude": 1.70709054548
        }
    },
    {
        "model": "carte.commune",
        "pk": 211,
        "fields": {
            "codePostal": 81990,
            "libCommune": "Puygouzon",
            "population2535": null,
            "population3545": null,
            "population4555": null,
            "demandeSoin": 72.0,
            "departement": 1,
            "latitude": 43.8884573228,
            "longitude": 2.16955643928
        }
    },
    {
        "model": "carte.commune",
        "pk": 212,
        "fields": {
            "codePostal": 81700,
            "libCommune": "Puylaurens",
            "population2535": null,
            "population3545": null,
            "population4555": null,
            "demandeSoin": 47.0,
            "departement": 1,
            "latitude": 43.5824524921,
            "longitude": 2.01685800368
        }
    },
    {
        "model": "carte.commune",
        "pk": 213,
        "fields": {
            "codePostal": 81800,
            "libCommune": "Rabastens",
            "population2535": null,
            "population3545": null,
            "population4555": null,
            "demandeSoin": 47.0,
            "departement": 1,
            "latitude": 43.8484040939,
            "longitude": 1.71495143196
        }
    },
    {
        "model": "carte.commune",
        "pk": 214,
        "fields": {
            "codePostal": 81330,
            "libCommune": "Rayssac",
            "population2535": null,
            "population3545": null,
            "population4555": null,
            "demandeSoin": 72.0,
            "departement": 1,
            "latitude": 43.8037266652,
            "longitude": 2.42461409466
        }
    },
    {
        "model": "carte.commune",
        "pk": 215,
        "fields": {
            "codePostal": 81120,
            "libCommune": "Réalmont",
            "population2535": null,
            "population3545": null,
            "population4555": null,
            "demandeSoin": 47.0,
            "departement": 1,
            "latitude": 43.7799765873,
            "longitude": 2.19017910647
        }
    },
    {
        "model": "carte.commune",
        "pk": 216,
        "fields": {
            "codePostal": 81223,
            "libCommune": "Le Rialet",
            "population2535": null,
            "population3545": null,
            "population4555": null,
            "demandeSoin": 72.0,
            "departement": 1
        }
    },
    {
        "model": "carte.commune",
        "pk": 217,
        "fields": {
            "codePostal": 81224,
            "libCommune": "Le Riols",
            "population2535": null,
            "population3545": null,
            "population4555": null,
            "demandeSoin": 72.0,
            "departement": 1
        }
    },
    {
        "model": "carte.commune",
        "pk": 218,
        "fields": {
            "codePostal": 81600,
            "libCommune": "Rivières",
            "population2535": null,
            "population3545": null,
            "population4555": null,
            "demandeSoin": 32.0,
            "departement": 1,
            "latitude": 43.9157732969,
            "longitude": 1.96947284122
        }
    },
    {
        "model": "carte.commune",
        "pk": 219,
        "fields": {
            "codePostal": 81210,
            "libCommune": "Roquecourbe",
            "population2535": null,
            "population3545": null,
            "population4555": null,
            "demandeSoin": 47.0,
            "departement": 1,
            "latitude": 43.6726544083,
            "longitude": 2.27758521528
        }
    },
    {
        "model": "carte.commune",
        "pk": 220,
        "fields": {
            "codePostal": 81800,
            "libCommune": "Roquemaure",
            "population2535": null,
            "population3545": null,
            "population4555": null,
            "demandeSoin": 47.0,
            "departement": 1,
            "latitude": 43.8230103992,
            "longitude": 1.61753468648
        }
    },
    {
        "model": "carte.commune",
        "pk": 221,
        "fields": {
            "codePostal": 81470,
            "libCommune": "Roquevidal",
            "population2535": null,
            "population3545": null,
            "population4555": null,
            "demandeSoin": 72.0,
            "departement": 1,
            "latitude": 43.6227131725,
            "longitude": 1.86053264834
        }
    },
    {
        "model": "carte.commune",
        "pk": 222,
        "fields": {
            "codePostal": 81400,
            "libCommune": "Rosières",
            "population2535": null,
            "population3545": null,
            "population4555": null,
            "demandeSoin": 47.0,
            "departement": 1,
            "latitude": 44.0411555772,
            "longitude": 2.19724002021
        }
    },
    {
        "model": "carte.commune",
        "pk": 223,
        "fields": {
            "codePostal": 81240,
            "libCommune": "Rouairoux",
            "population2535": null,
            "population3545": null,
            "population4555": null,
            "demandeSoin": 72.0,
            "departement": 1,
            "latitude": 43.4951010568,
            "longitude": 2.56621532287
        }
    },
    {
        "model": "carte.commune",
        "pk": 224,
        "fields": {
            "codePostal": 81150,
            "libCommune": "Rouffiac",
            "population2535": null,
            "population3545": null,
            "population4555": null,
            "demandeSoin": 47.0,
            "departement": 1,
            "latitude": 43.8826639291,
            "longitude": 2.07172030466
        }
    },
    {
        "model": "carte.commune",
        "pk": 225,
        "fields": {
            "codePostal": 81233,
            "libCommune": "Terre-de-Bancalié",
            "population2535": null,
            "population3545": null,
            "population4555": null,
            "demandeSoin": 47.0,
            "departement": 1
        }
    },
    {
        "model": "carte.commune",
        "pk": 226,
        "fields": {
            "codePostal": 81140,
            "libCommune": "Roussayrolles",
            "population2535": null,
            "population3545": null,
            "population4555": null,
            "demandeSoin": 47.0,
            "departement": 1,
            "latitude": 44.0939494388,
            "longitude": 1.8260511519
        }
    },
    {
        "model": "carte.commune",
        "pk": 227,
        "fields": {
            "codePostal": 81290,
            "libCommune": "Saint-Affrique-les-Montagnes",
            "population2535": null,
            "population3545": null,
            "population4555": null,
            "demandeSoin": 47.0,
            "departement": 1,
            "latitude": 43.5281225419,
            "longitude": 2.20135060333
        }
    },
    {
        "model": "carte.commune",
        "pk": 228,
        "fields": {
            "codePostal": 81500,
            "libCommune": "Saint-Agnan",
            "population2535": null,
            "population3545": null,
            "population4555": null,
            "demandeSoin": 47.0,
            "departement": 1,
            "latitude": 43.6956511222,
            "longitude": 1.74062164664
        }
    },
    {
        "model": "carte.commune",
        "pk": 229,
        "fields": {
            "codePostal": 81110,
            "libCommune": "Saint-Amancet",
            "population2535": null,
            "population3545": null,
            "population4555": null,
            "demandeSoin": 47.0,
            "departement": 1,
            "latitude": 43.4634376908,
            "longitude": 2.10916260669
        }
    },
    {
        "model": "carte.commune",
        "pk": 230,
        "fields": {
            "codePostal": 81240,
            "libCommune": "Saint-Amans-Soult",
            "population2535": null,
            "population3545": null,
            "population4555": null,
            "demandeSoin": 47.0,
            "departement": 1,
            "latitude": 43.4644785772,
            "longitude": 2.47706341258
        }
    },
    {
        "model": "carte.commune",
        "pk": 231,
        "fields": {
            "codePostal": 81240,
            "libCommune": "Saint-Amans-Valtoret",
            "population2535": null,
            "population3545": null,
            "population4555": null,
            "demandeSoin": 72.0,
            "departement": 1,
            "latitude": 43.506155075,
            "longitude": 2.50072448307
        }
    },
    {
        "model": "carte.commune",
        "pk": 232,
        "fields": {
            "codePostal": 81250,
            "libCommune": "Saint-André",
            "population2535": null,
            "population3545": null,
            "population4555": null,
            "demandeSoin": 72.0,
            "departement": 1,
            "latitude": 43.9326309582,
            "longitude": 2.45817547307
        }
    },
    {
        "model": "carte.commune",
        "pk": 233,
        "fields": {
            "codePostal": 81110,
            "libCommune": "Saint-Avit",
            "population2535": null,
            "population3545": null,
            "population4555": null,
            "demandeSoin": 47.0,
            "departement": 1,
            "latitude": 43.5156735271,
            "longitude": 2.11791103076
        }
    },
    {
        "model": "carte.commune",
        "pk": 234,
        "fields": {
            "codePostal": 81140,
            "libCommune": "Saint-Beauzile",
            "population2535": null,
            "population3545": null,
            "population4555": null,
            "demandeSoin": 32.0,
            "departement": 1,
            "latitude": 44.0274349161,
            "longitude": 1.81723438906
        }
    },
    {
        "model": "carte.commune",
        "pk": 235,
        "fields": {
            "codePostal": 81400,
            "libCommune": "Saint-Benoît-de-Carmaux",
            "population2535": null,
            "population3545": null,
            "population4555": null,
            "demandeSoin": 47.0,
            "departement": 1,
            "latitude": 44.0544138951,
            "longitude": 2.12958421961
        }
    },
    {
        "model": "carte.commune",
        "pk": 236,
        "fields": {
            "codePostal": 81190,
            "libCommune": "Saint-Christophe",
            "population2535": null,
            "population3545": null,
            "population4555": null,
            "demandeSoin": 72.0,
            "departement": 1,
            "latitude": 44.1526839554,
            "longitude": 2.0435980246
        }
    },
    {
        "model": "carte.commune",
        "pk": 237,
        "fields": {
            "codePostal": 81140,
            "libCommune": "Sainte-Cécile-du-Cayrou",
            "population2535": null,
            "population3545": null,
            "population4555": null,
            "demandeSoin": 47.0,
            "departement": 1,
            "latitude": 44.0018082654,
            "longitude": 1.80559449088
        }
    },
    {
        "model": "carte.commune",
        "pk": 238,
        "fields": {
            "codePostal": 81340,
            "libCommune": "Saint-Cirgue",
            "population2535": null,
            "population3545": null,
            "population4555": null,
            "demandeSoin": 47.0,
            "departement": 1,
            "latitude": 43.9705143368,
            "longitude": 2.37166365439
        }
    },
    {
        "model": "carte.commune",
        "pk": 239,
        "fields": {
            "codePostal": 81390,
            "libCommune": "Saint-Gauzens",
            "population2535": null,
            "population3545": null,
            "population4555": null,
            "demandeSoin": 47.0,
            "departement": 1,
            "latitude": 43.7421086865,
            "longitude": 1.88132892487
        }
    },
    {
        "model": "carte.commune",
        "pk": 240,
        "fields": {
            "codePostal": 81190,
            "libCommune": "Sainte-Gemme",
            "population2535": null,
            "population3545": null,
            "population4555": null,
            "demandeSoin": 47.0,
            "departement": 1,
            "latitude": 44.0888853221,
            "longitude": 2.19609081106
        }
    },
    {
        "model": "carte.commune",
        "pk": 241,
        "fields": {
            "codePostal": 81440,
            "libCommune": "Saint-Genest-de-Contest",
            "population2535": null,
            "population3545": null,
            "population4555": null,
            "demandeSoin": 47.0,
            "departement": 1,
            "latitude": 43.7619862953,
            "longitude": 2.14681126259
        }
    },